[
	{
		"id": 1,
		"title": "Lorem ipsum dolor sit amet",
		"lat": "50.075577",
		"lng" : "14.43781",
		"type": "restaurant"
	},
	{
		"id": 2,
		"title": "Lorem ipsum",
		"lat": "50.075561",
		"lng" : "14.424994",
		"type": "lorem"
	},
	{
		"id": 3,
		"title": "Lorem ipsum dolor sit amet Lorem ipsum",
		"lat": "50.076695",
		"lng" : "14.450000",
		"type": "restaurant"
	},
	{
		"id": 4,
		"title": "Lorem ipsum",
		"lat": "50.069674",
		"lng" : "14.408176",
		"type": "restaurant"
	},
	{
		"id": 5,
		"title": "test test",
		"lat": "50.080674",
		"lng" : "14.408176",
		"type": "test type"
	},
	{
		"id": 6,
		"title": "test location",
		"lat": "50.085005",
		"lng" : "14.458176",
		"type": "test type"
	},
	{
		"id": 7,
		"title": "location test lorem ipsum",
		"lat": "50.065005",
		"lng" : "14.458176",
		"type": "restaurant"
	},
	{
		"id": 8,
		"title": "lorem ipsum test",
		"lat": "50.082005",
		"lng" : "14.468176",
		"type": "restaurant"
	},
	{
		"id": 9,
		"title": "Location test test test",
		"lat": "50.078561",
		"lng" : "14.454994",
		"type": "lorem"
	},
	{
		"id": 10,
		"title": "dahi hjhjd ezdheizhfi hrfirhi",
		"lat": "50.068561",
		"lng" : "14.454994",
		"type": "lorem"
	}
]